[
  { "id": "do-orenburg", "name": "ДО Газпромнефть-Оренбург", "lon": 55.1, "lat": 51.77, "city": "Оренбург" },
  { "id": "do-yamal", "name": "ДО Газпромнефть-Ямал", "lon": 64.8, "lat": 57.8, "city": "Тюмень" },
  { "id": "do-zapolyarye", "name": "ДО Газпромнефть-Заполярье", "lon": 66.2, "lat": 56.6, "city": "Тюмень" },
  { "id": "do-messoyakha", "name": "ДО Газпромнефть-Мессояха", "lon": 67.0, "lat": 57.2, "city": "Тюмень" },
  { "id": "do-meretoyakha", "name": "ДО Газпромнефть-Меретояха", "lon": 76.63, "lat": 66.08, "city": "Новый Уренгой" },
  { "id": "do-noyabrsk", "name": "ДО Газпромнефть-Ноябрьск", "lon": 75.45, "lat": 63.2, "city": "Ноябрьск" },
  { "id": "do-megion", "name": "ДО Газпромнефть-Мегион", "lon": 68.2, "lat": 60.8, "city": "Ханты-Мансийск" },
  { "id": "prirazlomnoe", "name": "Приразломное месторождение", "lon": 51.33, "lat": 69.25, "city": null },
  { "id": "novy-port", "name": "Месторождение Новый Порт", "lon": 72.7, "lat": 70.0, "city": null },
  { "id": "messoyakha-m", "name": "Месторождение Мессояха", "lon": 79.5, "lat": 71.0, "city": null },
  { "id": "chayandinskoe", "name": "Чаяндинское месторождение", "lon": 118.0, "lat": 62.0, "city": null },
  { "id": "do-tomsk", "name": "ДО Газпромнефть-Томск", "lon": 84.97, "lat": 56.5, "city": "Томск" },
  { "id": "spb", "name": "Санкт-Петербург", "lon": 30.31, "lat": 59.93, "city": "Санкт-Петербург" },
  { "id": "moscow", "name": "Москва", "lon": 37.62, "lat": 55.75, "city": "Москва" }
]
